{"last_updated": "2026-07-03T06:32:37.386546", "total": 40, "affordable_count": 37, "max_rent": 80000, "apartments": [{"name": "カーメスト用賀馬事公苑", "area": "世田谷区", "layout": "１ＬＤＫ", "floor_area": "45.7～50.17", "price": 206800, "price_display": "206,800～233,400", "distance_km": 6.9, "train_min": 25, "lat": 35.6469025, "lon": 139.652531, "maps_url": "https://www.google.com/maps?q=35.6469025,139.652531", "uid": "カーメスト用賀馬事公苑_１ＬＤＫ", "affordable": false}, {"name": "カーメスト用賀馬事公苑", "area": "世田谷区", "layout": "２ＬＤＫ", "floor_area": "54.52～60.51", "price": 245300, "price_display": "245,300～286,400", "distance_km": 6.9, "train_min": 25, "lat": 35.6469025, "lon": 139.652531, "maps_url": "https://www.google.com/maps?q=35.6469025,139.652531", "uid": "カーメスト用賀馬事公苑_２ＬＤＫ", "affordable": false}, {"name": "カーメスト用賀馬事公苑", "area": "世田谷区", "layout": "３ＬＤＫ", "floor_area": "64.16～75.68", "price": 297500, "price_display": "297,500～362,500", "distance_km": 6.9, "train_min": 25, "lat": 35.6469025, "lon": 139.652531, "maps_url": "https://www.google.com/maps?q=35.6469025,139.652531", "uid": "カーメスト用賀馬事公苑_３ＬＤＫ", "affordable": false}, {"name": "久留米西", "area": "東久留米市", "layout": "２ＤＫ", "floor_area": "34.56", "price": 33300, "price_display": "33,300", "distance_km": 16.8, "train_min": 48, "lat": 35.736927, "lon": 139.525451, "maps_url": "https://www.google.com/maps?q=35.736927,139.525451", "uid": "久留米西_２ＤＫ", "affordable": true}, {"name": "久留米西", "area": "東久留米市", "layout": "２ＤＫ", "floor_area": "34.56", "price": 33300, "price_display": "33,300", "distance_km": 16.8, "train_min": 48, "lat": 35.736927, "lon": 139.525451, "maps_url": "https://www.google.com/maps?q=35.736927,139.525451", "uid": "久留米西_２ＤＫ", "affordable": true}, {"name": "清瀬台田", "area": "清瀬市", "layout": "２ＤＫ", "floor_area": "34.56", "price": 29900, "price_display": "29,900", "distance_km": 18.6, "train_min": 53, "lat": 35.785483, "lon": 139.531253, "maps_url": "https://www.google.com/maps?q=35.785483,139.531253", "uid": "清瀬台田_２ＤＫ", "affordable": true}, {"name": "小金井貫井", "area": "小金井市", "layout": "２Ｋ", "floor_area": "32.85", "price": 42300, "price_display": "42,300", "distance_km": 19.0, "train_min": 54, "lat": 35.7047562, "lon": 139.4934091, "maps_url": "https://www.google.com/maps?q=35.7047562,139.4934091", "uid": "小金井貫井_２Ｋ", "affordable": true}, {"name": "久留米下里", "area": "東久留米市", "layout": "２ＤＫ", "floor_area": "43.01", "price": 46000, "price_display": "46,000", "distance_km": 19.7, "train_min": 55, "lat": 35.7530764, "lon": 139.4973131, "maps_url": "https://www.google.com/maps?q=35.7530764,139.4973131", "uid": "久留米下里_２ＤＫ", "affordable": true}, {"name": "久留米下里", "area": "東久留米市", "layout": "３Ｋ", "floor_area": "40.8", "price": 50100, "price_display": "50,100", "distance_km": 19.7, "train_min": 55, "lat": 35.7530764, "lon": 139.4973131, "maps_url": "https://www.google.com/maps?q=35.7530764,139.4973131", "uid": "久留米下里_３Ｋ", "affordable": true}, {"name": "平尾", "area": "稲城市", "layout": "３Ｋ", "floor_area": "39.9", "price": 51200, "price_display": "51,200", "distance_km": 20.9, "train_min": 58, "lat": 35.609127, "lon": 139.4973186, "maps_url": "https://www.google.com/maps?q=35.609127,139.4973186", "uid": "平尾_３Ｋ", "affordable": true}, {"name": "真光寺", "area": "町田市", "layout": "２ＤＫ", "floor_area": "46.0", "price": 53100, "price_display": "53,100", "distance_km": 24.4, "train_min": 66, "lat": 35.602663, "lon": 139.458156, "maps_url": "https://www.google.com/maps?q=35.602663,139.458156", "uid": "真光寺_２ＤＫ", "affordable": true}, {"name": "落合", "area": "多摩市", "layout": "２ＤＫ", "floor_area": "44.74", "price": 55200, "price_display": "55,200", "distance_km": 26.3, "train_min": 71, "lat": 35.6147927, "lon": 139.4292765, "maps_url": "https://www.google.com/maps?q=35.6147927,139.4292765", "uid": "落合_２ＤＫ", "affordable": true}, {"name": "落合", "area": "多摩市", "layout": "３ＤＫ", "floor_area": "51.38～52.59", "price": 55200, "price_display": "55,200～58,200", "distance_km": 26.3, "train_min": 71, "lat": 35.6147927, "lon": 139.4292765, "maps_url": "https://www.google.com/maps?q=35.6147927,139.4292765", "uid": "落合_３ＤＫ", "affordable": true}, {"name": "落合", "area": "多摩市", "layout": "３ＤＫ", "floor_area": "51.38", "price": 56200, "price_display": "56,200", "distance_km": 26.3, "train_min": 71, "lat": 35.6147927, "lon": 139.4292765, "maps_url": "https://www.google.com/maps?q=35.6147927,139.4292765", "uid": "落合_３ＤＫ", "affordable": true}, {"name": "落合", "area": "多摩市", "layout": "３ＤＫ", "floor_area": "51.38", "price": 56200, "price_display": "56,200", "distance_km": 26.3, "train_min": 71, "lat": 35.6147927, "lon": 139.4292765, "maps_url": "https://www.google.com/maps?q=35.6147927,139.4292765", "uid": "落合_３ＤＫ", "affordable": true}, {"name": "落合", "area": "多摩市", "layout": "３ＤＫ", "floor_area": "52.59", "price": 56300, "price_display": "56,300", "distance_km": 26.3, "train_min": 71, "lat": 35.6147927, "lon": 139.4292765, "maps_url": "https://www.google.com/maps?q=35.6147927,139.4292765", "uid": "落合_３ＤＫ", "affordable": true}, {"name": "松が谷", "area": "八王子市", "layout": "３ＤＫ", "floor_area": "51.38", "price": 57500, "price_display": "57,500", "distance_km": 26.3, "train_min": 71, "lat": 35.6318225, "lon": 139.4220673, "maps_url": "https://www.google.com/maps?q=35.6318225,139.4220673", "uid": "松が谷_３ＤＫ", "affordable": true}, {"name": "松が谷", "area": "八王子市", "layout": "３ＤＫ", "floor_area": "52.59", "price": 57500, "price_display": "57,500", "distance_km": 26.3, "train_min": 71, "lat": 35.6318225, "lon": 139.4220673, "maps_url": "https://www.google.com/maps?q=35.6318225,139.4220673", "uid": "松が谷_３ＤＫ", "affordable": true}, {"name": "大和上北台", "area": "東大和市", "layout": "２ＤＫ", "floor_area": "37.64", "price": 44400, "price_display": "44,400", "distance_km": 27.2, "train_min": 73, "lat": 35.7470933, "lon": 139.4096857, "maps_url": "https://www.google.com/maps?q=35.7470933,139.4096857", "uid": "大和上北台_２ＤＫ", "affordable": true}, {"name": "富士見町東", "area": "立川市", "layout": "２ＤＫ", "floor_area": "48.32", "price": 64800, "price_display": "64,800～68,200", "distance_km": 27.8, "train_min": 75, "lat": 35.695282, "lon": 139.395992, "maps_url": "https://www.google.com/maps?q=35.695282,139.395992", "uid": "富士見町東_２ＤＫ", "affordable": true}, {"name": "町田木曽", "area": "町田市", "layout": "２Ｋ", "floor_area": "32.31", "price": 33800, "price_display": "33,800", "distance_km": 29.3, "train_min": 78, "lat": 35.5704373, "lon": 139.4166661, "maps_url": "https://www.google.com/maps?q=35.5704373,139.4166661", "uid": "町田木曽_２Ｋ", "affordable": true}, {"name": "町田木曽", "area": "町田市", "layout": "２ＤＫ", "floor_area": "34.56", "price": 34700, "price_display": "34,700～36,700", "distance_km": 29.3, "train_min": 78, "lat": 35.5704373, "lon": 139.4166661, "maps_url": "https://www.google.com/maps?q=35.5704373,139.4166661", "uid": "町田木曽_２ＤＫ", "affordable": true}, {"name": "町田木曽", "area": "町田市", "layout": "１ＤＫ", "floor_area": "32.85", "price": 35000, "price_display": "35,000", "distance_km": 29.3, "train_min": 78, "lat": 35.5704373, "lon": 139.4166661, "maps_url": "https://www.google.com/maps?q=35.5704373,139.4166661", "uid": "町田木曽_１ＤＫ", "affordable": true}, {"name": "町田木曽", "area": "町田市", "layout": "２ＤＫ", "floor_area": "34.56", "price": 35800, "price_display": "35,800", "distance_km": 29.3, "train_min": 78, "lat": 35.5704373, "lon": 139.4166661, "maps_url": "https://www.google.com/maps?q=35.5704373,139.4166661", "uid": "町田木曽_２ＤＫ", "affordable": true}, {"name": "町田木曽", "area": "町田市", "layout": "２ＤＫ", "floor_area": "34.56", "price": 35800, "price_display": "35,800", "distance_km": 29.3, "train_min": 78, "lat": 35.5704373, "lon": 139.4166661, "maps_url": "https://www.google.com/maps?q=35.5704373,139.4166661", "uid": "町田木曽_２ＤＫ", "affordable": true}, {"name": "町田木曽", "area": "町田市", "layout": "２ＤＫ", "floor_area": "34.56", "price": 35800, "price_display": "35,800", "distance_km": 29.3, "train_min": 78, "lat": 35.5704373, "lon": 139.4166661, "maps_url": "https://www.google.com/maps?q=35.5704373,139.4166661", "uid": "町田木曽_２ＤＫ", "affordable": true}, {"name": "町田木曽", "area": "町田市", "layout": "２ＤＫ", "floor_area": "34.56", "price": 36100, "price_display": "36,100～36,700", "distance_km": 29.3, "train_min": 78, "lat": 35.5704373, "lon": 139.4166661, "maps_url": "https://www.google.com/maps?q=35.5704373,139.4166661", "uid": "町田木曽_２ＤＫ", "affordable": true}, {"name": "町田木曽", "area": "町田市", "layout": "３Ｋ", "floor_area": "39.9", "price": 41200, "price_display": "41,200～42,400", "distance_km": 29.3, "train_min": 78, "lat": 35.5704373, "lon": 139.4166661, "maps_url": "https://www.google.com/maps?q=35.5704373,139.4166661", "uid": "町田木曽_３Ｋ", "affordable": true}, {"name": "町田木曽", "area": "町田市", "layout": "３Ｋ", "floor_area": "39.9", "price": 41800, "price_display": "41,800～42,300", "distance_km": 29.3, "train_min": 78, "lat": 35.5704373, "lon": 139.4166661, "maps_url": "https://www.google.com/maps?q=35.5704373,139.4166661", "uid": "町田木曽_３Ｋ", "affordable": true}, {"name": "町田木曽", "area": "町田市", "layout": "３Ｋ", "floor_area": "39.9", "price": 49800, "price_display": "49,800", "distance_km": 29.3, "train_min": 78, "lat": 35.5704373, "lon": 139.4166661, "maps_url": "https://www.google.com/maps?q=35.5704373,139.4166661", "uid": "町田木曽_３Ｋ", "affordable": true}, {"name": "昭島田中町", "area": "昭島市", "layout": "２ＤＫ", "floor_area": "48.32", "price": 48900, "price_display": "48,900", "distance_km": 31.7, "train_min": 84, "lat": 35.7079626, "lon": 139.3523984, "maps_url": "https://www.google.com/maps?q=35.7079626,139.3523984", "uid": "昭島田中町_２ＤＫ", "affordable": true}, {"name": "昭島田中町", "area": "昭島市", "layout": "２ＤＫ", "floor_area": "48.32", "price": 48900, "price_display": "48,900", "distance_km": 31.7, "train_min": 84, "lat": 35.7079626, "lon": 139.3523984, "maps_url": "https://www.google.com/maps?q=35.7079626,139.3523984", "uid": "昭島田中町_２ＤＫ", "affordable": true}, {"name": "八王子泉町", "area": "八王子市", "layout": "２ＤＫ", "floor_area": "34.56", "price": 29800, "price_display": "29,800", "distance_km": 36.6, "train_min": 96, "lat": 35.6724291, "lon": 139.2994657, "maps_url": "https://www.google.com/maps?q=35.6724291,139.2994657", "uid": "八王子泉町_２ＤＫ", "affordable": true}, {"name": "松枝", "area": "八王子市", "layout": "２ＤＫ", "floor_area": "39.6", "price": 36600, "price_display": "36,600", "distance_km": 37.2, "train_min": 97, "lat": 35.6824939, "lon": 139.2920041, "maps_url": "https://www.google.com/maps?q=35.6824939,139.2920041", "uid": "松枝_２ＤＫ", "affordable": true}, {"name": "大和芝中", "area": "東大和市", "layout": "３Ｋ", "floor_area": "39.9", "price": 43800, "price_display": "43,800", "distance_km": 362.9, "train_min": 879, "lat": 35.0309516, "lon": 135.7849629, "maps_url": "https://www.google.com/maps?q=35.0309516,135.7849629", "uid": "大和芝中_３Ｋ", "affordable": true}, {"name": "大和芝中", "area": "東大和市", "layout": "３Ｋ", "floor_area": "39.9", "price": 49400, "price_display": "49,400", "distance_km": 362.9, "train_min": 879, "lat": 35.0309516, "lon": 135.7849629, "maps_url": "https://www.google.com/maps?q=35.0309516,135.7849629", "uid": "大和芝中_３Ｋ", "affordable": true}, {"name": "大和芝中", "area": "東大和市", "layout": "２ＤＫＳ", "floor_area": "51.74", "price": 54100, "price_display": "54,100～56,200", "distance_km": 362.9, "train_min": 879, "lat": 35.0309516, "lon": 135.7849629, "maps_url": "https://www.google.com/maps?q=35.0309516,135.7849629", "uid": "大和芝中_２ＤＫＳ", "affordable": true}, {"name": "境川", "area": "町田市", "layout": "２Ｋ", "floor_area": "32.85", "price": 38400, "price_display": "38,400", "distance_km": 362.9, "train_min": 879, "lat": 35.0389158, "lon": 135.7821911, "maps_url": "https://www.google.com/maps?q=35.0389158,135.7821911", "uid": "境川_２Ｋ", "affordable": true}, {"name": "境川", "area": "町田市", "layout": "２ＤＫ", "floor_area": "34.56", "price": 39900, "price_display": "39,900", "distance_km": 362.9, "train_min": 879, "lat": 35.0389158, "lon": 135.7821911, "maps_url": "https://www.google.com/maps?q=35.0389158,135.7821911", "uid": "境川_２ＤＫ", "affordable": true}, {"name": "本町田", "area": "町田市", "layout": "２ＤＫＳ", "floor_area": "51.74", "price": 60000, "price_display": "60,000", "distance_km": 362.9, "train_min": 879, "lat": 35.0389158, "lon": 135.7821911, "maps_url": "https://www.google.com/maps?q=35.0389158,135.7821911", "uid": "本町田_２ＤＫＳ", "affordable": true}]}